GPS Week,GPS TOW [s],Pos Mode,INS Mode,Hdg Mode,SVs Tracked,SVs Used,UTC Date,UTC Time,Lat [deg],Lon [deg],Alt Ellips [m],SOG [m/s],COG [deg],Hdg [deg],Vert Vel [m/s],Roll [deg],Pitch [deg],Yaw [deg],PDOP,HDOP,EHPE [m],EVPE [m],Baseline 2D [m],Baseline 3D [m],Corr. Age [s],Delta TOW [ms],2D Delta Pos [m],3D Delta Pos [m]
,278818.700,1,1,,,15,,,-37.8626780711,144.7422305040,18.8534,0.38,276.524,,0.06,-3.7,4.5,152.1,,,0.17,0.28,,,,,,
2085,278818.800,1,0,,30,15,2019-12-25,05:26:40.799,-37.8626787081,144.7422375093,19.0720,0.03,184.764,,-0.03,,,,1.4,0.7,1.08,2.28,,,,100,0.619,0.656
,278818.800,1,1,,,15,,,-37.8626780775,144.7422304879,18.8619,0.39,275.875,,0.06,-3.7,4.5,152.1,,,0.17,0.28,,,,0,0.620,0.655
2085,278818.900,1,0,,,15,2019-12-25,05:26:40.899,-37.8626787286,144.7422375166,19.0719,0.03,340.710,,0.02,,,,1.4,0.7,1.08,2.28,,,,100,0.621,0.656
,278818.900,1,1,,,15,,,-37.8626780672,144.7422304728,18.8708,0.39,275.262,,0.05,-3.8,4.5,152.1,,,0.17,0.28,,,,0,0.623,0.654
2085,278819.000,1,0,,,15,2019-12-25,05:26:40.999,-37.8626787650,144.7422375382,19.0688,0.02,189.462,,-0.01,,,,1.4,0.7,1.08,2.28,,,,100,0.625,0.656
,278819.000,1,1,,,15,,,-37.8626780782,144.7422304586,18.8786,0.38,275.802,,0.06,-3.7,4.5,152.1,,,0.17,0.28,,,,0,0.626,0.654
2085,278819.100,1,0,,,15,2019-12-25,05:26:41.099,-37.8626787986,144.7422375531,19.0670,0.01,245.225,,-0.00,,,,1.4,0.7,1.08,2.28,,,,100,0.628,0.656
,278819.100,1,1,,,15,,,-37.8626780853,144.7422304425,18.8871,0.38,275.167,,0.06,-3.8,4.5,152.1,,,0.17,0.28,,,,0,0.629,0.654
2085,278819.200,1,0,,,15,2019-12-25,05:26:41.199,-37.8626788225,144.7422376061,19.0645,0.02,51.843,,0.00,,,,1.4,0.7,1.08,2.28,,,,100,0.634,0.659
,278819.200,1,1,,24,15,,,-37.8626780846,144.7422304433,18.8951,0.38,274.574,,0.06,-3.7,4.5,152.1,,,0.17,0.28,,,,0,0.634,0.656
2085,278819.300,1,0,,,15,2019-12-25,05:26:41.299,-37.8626788614,144.7422376428,19.0578,0.01,153.435,,-0.01,,,,1.4,0.7,1.08,2.28,,,,100,0.638,0.658
,278819.300,1,1,,,15,,,-37.8626780945,144.7422304356,18.9026,0.38,274.917,,0.06,-3.7,4.4,152.1,,,0.17,0.28,,,,0,0.638,0.657
2085,278819.400,1,0,,,15,2019-12-25,05:26:41.399,-37.8626789120,144.7422377064,19.0474,0.03,128.290,,-0.02,,,,1.4,0.7,1.08,2.28,,,,100,0.645,0.661
,278819.400,1,1,,,15,,,-37.8626781096,144.7422304456,18.9101,0.38,274.293,,0.06,-3.8,4.5,152.1,,,0.17,0.28,,,,0,0.644,0.658
2085,278819.500,1,0,,,15,2019-12-25,05:26:41.499,-37.8626789440,144.7422377396,19.0363,0.02,225.000,,-0.02,,,,1.4,0.7,1.08,2.28,,,,100,0.647,0.659
,278819.500,1,1,,,15,,,-37.8626781203,144.7422304399,18.9169,0.37,274.185,,0.06,-3.7,4.4,152.1,,,0.17,0.28,,,,0,0.647,0.658
2085,278819.600,1,0,,,15,2019-12-25,05:26:41.599,-37.8626789614,144.7422377688,19.0282,0.04,330.255,,0.03,,,,,,1.08,2.28,,,,100,0.650,0.660
,278819.600,1,1,,,15,,,-37.8626781243,144.7422304323,18.9243,0.37,274.530,,0.06,-3.8,4.4,152.1,1.4,0.7,0.17,0.28,,,,0,0.651,0.659
2085,278819.700,1,0,,,15,2019-12-25,05:26:41.699,-37.8626790072,144.7422378163,19.0147,0.01,158.962,,-0.00,,,,1.4,0.7,1.08,2.28,,,,100,0.656,0.662
,278819.700,1,1,,30,15,,,-37.8626781406,144.7422304382,18.9312,0.37,273.567,,0.06,-3.8,4.4,152.1,,,0.17,0.28,,,,0,0.655,0.660
2085,278819.800,1,0,,,15,2019-12-25,05:26:41.799,-37.8626790336,144.7422378485,19.0038,0.01,0.000,,0.01,,,,1.4,0.7,1.08,2.28,,,,100,0.658,0.662
,278819.800,1,1,,,15,,,-37.8626781512,144.7422304379,18.9377,0.37,273.449,,0.06,-3.8,4.4,152.1,,,0.17,0.28,,,,0,0.658,0.661
2085,278819.900,1,0,,,15,2019-12-25,05:26:41.899,-37.8626790673,144.7422378661,18.9904,0.01,254.055,,-0.00,,,,1.4,0.7,1.08,2.28,,,,100,0.660,0.662
,278819.900,1,1,,,15,,,-37.8626781672,144.7422304346,18.9438,0.37,273.635,,0.06,-3.8,4.4,152.1,,,0.17,0.28,,,,0,0.660,0.662
2085,278820.000,1,0,,,15,2019-12-25,05:26:41.999,-37.8626791048,144.7422379169,18.9748,0.02,77.005,,-0.01,,,,1.4,0.7,1.08,2.28,,,,100,0.665,0.666
,278820.000,1,1,,,15,,,-37.8626781793,144.7422304486,18.9497,0.37,272.996,,0.06,-3.8,4.4,152.1,,,0.17,0.28,,,,0,0.664,0.664
2085,278820.100,1,0,,,15,2019-12-25,05:26:42.099,-37.8626791462,144.7422379502,18.9605,0.01,116.565,,-0.00,,,,1.4,0.7,1.08,2.28,,,,100,0.667,0.667
,278820.100,1,1,,,15,,,-37.8626781961,144.7422304558,18.9551,0.36,273.030,,0.06,-3.8,4.4,152.1,,,0.17,0.28,,,,0,0.666,0.666
2085,278820.200,1,0,,,15,2019-12-25,05:26:42.199,-37.8626791804,144.7422379569,18.9498,0.02,201.801,,-0.00,,,,1.4,0.7,1.08,2.28,,,,100,0.668,0.668
,278820.200,1,1,,24,15,,,-37.8626782210,144.7422304579,18.9605,0.36,273.038,,0.06,-3.8,4.4,152.1,,,0.17,0.28,,,,0,0.667,0.667
2085,278820.300,1,0,,,15,2019-12-25,05:26:42.299,-37.8626792084,144.7422379839,18.9349,0.04,101.310,,-0.03,,,,1.4,0.7,1.08,2.28,,,,100,0.670,0.670
,278820.300,1,1,,,15,,,-37.8626782396,144.7422304824,18.9652,0.36,272.399,,0.06,-3.8,4.4,152.2,,,0.17,0.28,,,,0,0.667,0.668
2085,278820.400,1,0,,,15,2019-12-25,05:26:42.399,-37.8626792164,144.7422379467,18.9292,0.04,279.462,,0.04,,,,1.4,0.7,1.08,2.28,,,,100,0.664,0.665
,278820.400,1,1,,,15,,,-37.8626782560,144.7422304759,18.9706,0.36,272.420,,0.06,-3.8,4.4,152.2,,,0.17,0.28,,,,0,0.664,0.666
2085,278820.500,1,0,,,15,2019-12-25,05:26:42.499,-37.8626792361,144.7422379432,18.9159,0.03,61.390,,-0.02,,,,1.4,0.7,1.08,2.28,,,,100,0.665,0.667
,278820.500,1,1,,,15,,,-37.8626782716,144.7422304893,18.9750,0.36,272.426,,0.06,-3.8,4.4,152.2,,,0.17,0.28,,,,0,0.663,0.666
2085,278820.600,1,0,,,15,2019-12-25,05:26:42.599,-37.8626792785,144.7422379164,18.9008,0.02,251.565,,-0.02,,,,,,1.08,2.28,,,,100,0.662,0.666
,278820.600,1,1,,,15,,,-37.8626782905,144.7422304931,18.9794,0.36,271.780,,0.06,-3.8,4.4,152.2,1.4,0.7,0.17,0.28,,,,0,0.661,0.666
,278822.600,,,,,,,,,,,,,,,-3.8,4.4,152.3,,,,,,,,2000,,
2085,278822.700,1,0,,,15,2019-12-25,05:26:44.699,-37.8626789943,144.7422369917,18.9713,0.04,345.964,,0.04,,,,,,1.08,2.29,,,,100,,
,278822.700,1,1,,30,15,,,-37.8626787518,144.7422304057,19.0530,0.33,268.419,,0.06,-3.8,4.4,152.3,1.4,0.7,0.17,0.28,,,,0,0.579,0.585
2085,278822.800,1,0,,,15,2019-12-25,05:26:44.799,-37.8626789218,144.7422369328,18.9842,0.01,299.055,,0.00,,,,1.4,0.7,1.08,2.29,,,,100,0.573,0.577
,278822.800,1,1,,,15,,,-37.8626787567,144.7422303805,19.0577,0.33,267.737,,0.05,-3.8,4.4,152.3,,,0.17,0.28,,,,0,0.576,0.580
2085,278822.900,1,0,,,15,2019-12-25,05:26:44.899,-37.8626788609,144.7422369097,18.9928,0.02,111.801,,-0.01,,,,1.4,0.7,1.08,2.29,,,,100,0.573,0.577
,278822.900,1,1,,,15,,,-37.8626787665,144.7422303633,19.0616,0.33,267.374,,0.05,-3.8,4.4,152.3,,,0.17,0.28,,,,0,0.575,0.579
2085,278823.000,1,0,,,15,2019-12-25,05:26:44.999,-37.8626788063,144.7422368829,19.0000,0.01,41.186,,0.00,,,,1.4,0.7,1.08,2.29,,,,100,0.572,0.576
,278823.000,1,1,,,15,,,-37.8626787712,144.7422303553,19.0657,0.33,268.056,,0.06,-3.8,4.4,152.3,,,0.17,0.28,,,,0,0.573,0.577
2085,278823.100,1,0,,,15,2019-12-25,05:26:45.099,-37.8626787692,144.7422368479,19.0064,0.01,251.565,,0.01,,,,1.4,0.7,1.08,2.29,,,,100,0.570,0.573
,278823.100,1,1,,,15,,,-37.8626787759,144.7422303447,19.0706,0.33,267.533,,0.06,-3.8,4.4,152.3,,,0.17,0.28,,,,0,0.571,0.574
2085,278823.200,1,0,,,15,2019-12-25,05:26:45.199,-37.8626787389,144.7422368290,19.0090,0.02,141.340,,-0.02,,,,1.4,0.7,1.08,2.29,,,,100,0.569,0.573
,278823.200,1,1,,25,15,,,-37.8626787825,144.7422303369,19.0746,0.33,267.155,,0.06,-3.8,4.4,152.3,,,0.17,0.28,,,,0,0.570,0.574
2085,278823.300,1,0,,,15,2019-12-25,05:26:45.299,-37.8626787202,144.7422367954,19.0135,0.02,228.013,,0.01,,,,,,1.08,2.29,,,,100,0.567,0.570
,278823.300,1,1,,,15,,,-37.8626787925,144.7422303208,19.0787,0.32,267.659,,0.06,-3.8,4.4,152.3,1.4,0.7,0.17,0.28,,,,0,0.568,0.572
2085,278823.400,1,0,,,15,2019-12-25,05:26:45.399,-37.8626786895,144.7422367787,19.0158,0.02,320.711,,-0.01,,,,1.4,0.7,1.08,2.29,,,,100,0.567,0.571
,278823.400,1,1,,,15,,,-37.8626787900,144.7422303087,19.0833,0.33,267.325,,0.06,-3.8,4.4,152.3,,,0.17,0.28,,,,0,0.568,0.572
2085,278823.500,1,0,,,15,2019-12-25,05:26:45.499,-37.8626786776,144.7422367952,19.0217,0.02,83.991,,0.01,,,,1.4,0.7,1.08,2.29,,,,100,0.570,0.573
,278823.500,1,1,,,15,,,-37.8626787925,144.7422303118,19.0876,0.33,266.781,,0.05,-3.8,4.4,152.3,,,0.17,0.28,,,,0,0.569,0.573
2085,278823.600,1,0,,,15,2019-12-25,05:26:45.599,-37.8626786625,144.7422367784,19.0318,0.06,255.964,,0.06,,,,1.4,0.7,1.08,2.29,,,,100,0.568,0.571
,278823.600,1,1,,,15,,,-37.8626787995,144.7422302932,19.0925,0.32,267.282,,0.06,-3.8,4.4,152.3,,,0.17,0.28,,,,0,0.570,0.573
2085,278823.700,1,0,,,15,2019-12-25,05:26:45.699,-37.8626786489,144.7422367987,19.0310,0.04,59.036,,-0.04,,,,,,1.08,2.29,,,,100,0.571,0.575
,278823.700,1,1,,31,15,,,-37.8626788007,144.7422302919,19.0966,0.32,267.092,,0.06,-3.8,4.4,152.3,1.4,0.7,0.17,0.28,,,,0,0.571,0.575
2085,278823.800,1,0,,,15,2019-12-25,05:26:45.799,-37.8626786579,144.7422368338,19.0302,0.00,116.565,,-0.00,,,,,,1.08,2.29,,,,100,0.575,0.578
,278823.800,1,1,,,15,,,-37.8626788041,144.7422302911,19.1010,0.32,266.730,,0.05,-3.8,4.4,152.3,1.4,0.7,0.17,0.28,,,,0,0.575,0.579
2085,278823.900,1,0,,,15,2019-12-25,05:26:45.899,-37.8626786724,144.7422368700,19.0282,0.01,315.000,,-0.01,,,,1.4,0.7,1.08,2.29,,,,100,0.578,0.582
,278823.900,1,1,,,15,,,-37.8626788062,144.7422302856,19.1047,0.32,266.871,,0.06,-3.8,4.4,152.3,,,0.17,0.28,,,,0,0.578,0.583
2085,278824.000,1,0,,,15,2019-12-25,05:26:45.999,-37.8626786931,144.7422369208,19.0215,0.00,56.310,,0.00,,,,,,1.08,2.29,,,,100,0.583,0.589
,278824.000,1,1,,,15,,,-37.8626788097,144.7422302879,19.1087,0.32,267.036,,0.06,-3.8,4.3,152.4,1.4,0.7,0.17,0.28,,,,0,0.582,0.589
2085,278824.100,1,0,,,15,2019-12-25,05:26:46.099,-37.8626787179,144.7422369789,19.0165,0.03,126.384,,-0.02,,,,1.4,0.7,1.08,2.29,,,,100,0.587,0.595
,278824.100,1,1,,,15,,,-37.8626788207,144.7422303030,19.1126,0.31,266.481,,0.06,-3.9,4.3,152.4,,,0.17,0.28,,,,0,0.586,0.594
2085,278824.200,1,0,,,15,2019-12-25,05:26:46.199,-37.8626787241,144.7422370069,19.0165,0.01,281.310,,0.00,,,,1.4,0.7,1.08,2.29,,,,100,0.589,0.596
,278824.200,1,1,,25,15,,,-37.8626788248,144.7422302998,19.1163,0.31,266.112,,0.05,-3.8,4.3,152.4,,,0.17,0.28,,,,0,0.589,0.597
2085,278824.300,1,0,,,15,2019-12-25,05:26:46.299,-37.8626787191,144.7422370462,19.0155,0.01,351.870,,-0.00,,,,,,1.08,2.29,,,,100,0.592,0.601
,278824.300,1,1,,,15,,,-37.8626788278,144.7422303023,19.1198,0.31,266.634,,0.06,-3.8,4.3,152.4,1.4,0.7,0.17,0.28,,,,0,0.592,0.601
2085,278824.400,1,0,,,15,2019-12-25,05:26:46.399,-37.8626786959,144.7422370783,19.0160,0.03,4.764,,-0.02,,,,1.4,0.7,1.08,2.29,,,,100,0.595,0.604
,278824.400,1,1,,,15,,,-37.8626788266,144.7422303092,19.1234,0.31,266.799,,0.06,-3.9,4.3,152.4,,,0.17,0.28,,,,0,0.594,0.604
2085,278824.500,1,0,,,15,2019-12-25,05:26:46.499,-37.8626787074,144.7422371166,19.0197,0.03,209.055,,0.03,,,,1.4,0.7,1.08,2.29,,,,100,0.598,0.607
,278824.500,1,1,,,15,,,-37.8626788349,144.7422303161,19.1277,0.31,266.061,,0.06,-3.9,4.3,152.4,,,0.17,0.28,,,,0,0.597,0.607
2085,278824.600,1,0,,,15,2019-12-25,05:26:46.599,-37.8626787013,144.7422371768,19.0209,0.02,24.444,,0.02,,,,1.4,0.7,1.08,2.29,,,,100,0.602,0.612
,278824.600,1,1,,,15,,,-37.8626788340,144.7422303299,19.1315,0.31,266.199,,0.06,-3.8,4.3,152.4,,,0.17,0.28,,,,0,0.601,0.611
2085,278824.700,1,0,,,15,2019-12-25,05:26:46.699,-37.8626787094,144.7422372272,19.0144,0.03,248.199,,-0.03,,,,,,1.08,2.29,,,,100,0.606,0.617
,278824.700,1,1,,31,15,,,-37.8626788405,144.7422303392,19.1345,0.30,266.543,,0.06,-3.9,4.3,152.4,1.4,0.7,0.17,0.28,,,,0,0.605,0.617
2085,278824.800,1,0,,,15,2019-12-25,05:26:46.799,-37.8626787112,144.7422372939,19.0107,0.01,90.000,,0.01,,,,,,1.08,2.29,,,,100,0.611,0.623
,278824.800,1,1,,,15,,,-37.8626788448,144.7422303564,19.1383,0.30,266.160,,0.06,-3.9,4.3,152.4,1.4,0.7,0.17,0.28,,,,0,0.609,0.622
2085,278824.900,1,0,,,15,2019-12-25,05:26:46.899,-37.8626787125,144.7422373584,19.0054,0.03,126.870,,-0.02,,,,1.4,0.7,1.08,2.29,,,,100,0.615,0.629
,278824.900,1,1,,,15,,,-37.8626788534,144.7422303810,19.1414,0.30,265.778,,0.06,-3.9,4.3,152.4,,,0.17,0.28,,,,0,0.613,0.628
2085,278825.000,1,0,,,15,2019-12-25,05:26:46.999,-37.8626786933,144.7422373894,19.0039,0.02,315.000,,0.02,,,,1.4,0.7,1.08,2.29,,,,100,0.616,0.631
,278825.000,1,1,,,15,,,-37.8626788536,144.7422303916,19.1448,0.30,266.302,,0.06,-3.9,4.3,152.4,,,0.17,0.28,,,,0,0.615,0.631
2085,278825.100,1,0,,,15,2019-12-25,05:26:47.099,-37.8626786675,144.7422374161,19.0061,0.03,319.764,,0.03,,,,1.4,0.7,1.08,2.29,,,,100,0.617,0.632
,278825.100,1,1,,,15,,,-37.8626788515,144.7422304038,19.1485,0.30,266.108,,0.06,-3.9,4.3,152.4,,,0.17,0.28,,,,0,0.616,0.632
2085,278825.200,1,0,,,15,2019-12-25,05:26:47.199,-37.8626786567,144.7422374545,19.0002,0.04,140.194,,-0.04,,,,1.4,0.7,1.08,2.29,,,,100,0.619,0.637
,278825.200,1,1,,25,15,,,-37.8626788572,144.7422304278,19.1511,0.30,265.691,,0.06,-3.9,4.3,152.4,,,0.17,0.28,,,,0,0.617,0.635
2085,278825.300,1,0,,,15,2019-12-25,05:26:47.299,-37.8626786376,144.7422374959,18.9966,0.02,45.000,,0.02,,,,,,1.08,2.29,,,,100,0.621,0.640
,278825.300,1,1,,,15,,,-37.8626788564,144.7422304538,19.1543,0.29,266.226,,0.06,-3.9,4.3,152.4,1.4,0.7,0.17,0.28,,,,0,0.619,0.638
2085,278825.400,1,0,,,15,2019-12-25,05:26:47.399,-37.8626786167,144.7422375299,18.9945,0.01,59.036,,0.01,,,,1.4,0.7,1.08,2.29,,,,100,0.622,0.642
,278825.400,1,1,,,15,,,-37.8626788560,144.7422304829,19.1573,0.30,266.239,,0.06,-3.9,4.3,152.4,,,0.17,0.28,,,,0,0.619,0.640
2085,278825.500,1,0,,,15,2019-12-25,05:26:47.499,-37.8626786214,144.7422375402,18.9886,0.02,220.601,,-0.01,,,,1.4,0.7,1.08,2.29,,,,100,0.620,0.643
,278825.500,1,1,,,15,,,-37.8626788642,144.7422304991,19.1600,0.29,265.830,,0.06,-3.9,4.3,152.5,,,0.17,0.28,,,,0,0.619,0.642
2085,278825.600,1,0,,,15,2019-12-25,05:26:47.599,-37.8626786162,144.7422375640,18.9870,0.01,63.435,,0.00,,,,1.4,0.7,1.08,2.29,,,,100,0.621,0.644
,278825.600,1,1,,,15,,,-37.8626788638,144.7422305286,19.1626,0.29,266.373,,0.06,-3.9,4.3,152.5,,,0.17,0.28,,,,0,0.618,0.643
2085,278825.700,1,0,,,15,2019-12-25,05:26:47.699,-37.8626786054,144.7422375611,18.9852,0.01,277.125,,-0.01,,,,,,1.08,2.29,,,,100,0.618,0.643
,278825.700,1,1,,31,15,,,-37.8626788653,144.7422305474,19.1651,0.29,265.986,,0.06,-3.9,4.3,152.5,1.4,0.7,0.17,0.28,,,,0,0.616,0.642
2085,278825.800,1,0,,,15,2019-12-25,05:26:47.799,-37.8626786051,144.7422375761,18.9851,0.01,108.435,,0.00,,,,1.4,0.7,1.08,2.29,,,,100,0.618,0.643
,278825.800,1,1,,,15,,,-37.8626788671,144.7422305764,19.1678,0.29,265.741,,0.06,-3.9,4.3,152.5,,,0.17,0.28,,,,0,0.615,0.642
2085,278825.900,1,0,,,15,2019-12-25,05:26:47.899,-37.8626785892,144.7422375639,18.9874,0.01,236.310,,-0.01,,,,1.4,0.7,1.08,2.29,,,,100,0.614,0.640
,278825.900,1,1,,,15,,,-37.8626788694,144.7422305982,19.1702,0.28,266.706,,0.06,-3.9,4.3,152.5,,,0.17,0.28,,,,0,0.612,0.639
2085,278826.000,1,0,,,15,2019-12-25,05:26:47.999,-37.8626785662,144.7422375578,18.9906,0.02,0.000,,0.02,,,,,,1.08,2.29,,,,100,0.612,0.638
,278826.000,1,1,,,15,,,-37.8626788671,144.7422306232,19.1730,0.29,265.900,,0.06,-3.9,4.3,152.5,1.4,0.7,0.17,0.28,,,,0,0.610,0.636
2085,278826.100,1,0,,,15,2019-12-25,05:26:48.099,-37.8626785622,144.7422375528,18.9878,0.04,165.964,,-0.04,,,,1.4,0.7,1.08,2.29,,,,100,0.609,0.637
,278826.100,1,1,,,15,,,-37.8626788711,144.7422306501,19.1750,0.28,265.270,,0.06,-3.9,4.3,152.5,,,0.17,0.28,,,,0,0.607,0.635
2085,278826.200,1,0,,,15,2019-12-25,05:26:48.199,-37.8626785484,144.7422375209,18.9887,0.03,276.340,,0.03,,,,1.4,0.7,1.08,2.29,,,,100,0.604,0.632
,278826.200,1,1,,25,15,,,-37.8626788719,144.7422306676,19.1777,0.28,266.033,,0.06,-3.9,4.3,152.5,,,0.17,0.28,,,,0,0.603,0.632
2085,278826.300,1,0,,,15,2019-12-25,05:26:48.299,-37.8626785411,144.7422375073,18.9828,0.01,90.000,,-0.01,,,,1.4,0.7,1.08,2.29,,,,100,0.602,0.632
,278826.300,1,1,,,15,,,-37.8626788727,144.7422306955,19.1798,0.28,266.424,,0.06,-3.9,4.3,152.5,,,0.17,0.28,,,,0,0.599,0.631
2085,278826.400,1,0,,,15,2019-12-25,05:26:48.399,-37.8626785323,144.7422374861,18.9798,0.03,323.973,,0.03,,,,1.4,0.7,1.08,2.29,,,,100,0.597,0.630
,278826.400,1,1,,,15,,,-37.8626788658,144.7422307156,19.1829,0.28,265.617,,0.06,-3.9,4.3,152.5,,,0.17,0.28,,,,0,0.596,0.629
2085,278826.500,1,0,,,15,2019-12-25,05:26:48.499,-37.8626785285,144.7422374657,18.9729,0.00,333.435,,0.00,,,,1.4,0.7,1.08,2.29,,,,100,0.594,0.630
,278826.500,1,1,,,15,,,-37.8626788637,144.7422307372,19.1851,0.28,265.764,,0.06,-3.9,4.3,152.5,,,0.17,0.28,,,,0,0.592,0.629
2085,278826.600,1,0,,,15,2019-12-25,05:26:48.599,-37.8626785421,144.7422374409,18.9664,0.02,180.000,,0.02,,,,1.4,0.7,1.08,2.29,,,,100,0.590,0.629
,278826.600,1,1,,,15,,,-37.8626788720,144.7422307590,19.1874,0.28,266.357,,0.06,-3.9,4.3,152.5,,,0.17,0.28,,,,0,0.588,0.628
2085,278826.700,1,0,,,15,2019-12-25,05:26:48.699,-37.8626785364,144.7422374189,18.9570,0.02,90.000,,-0.02,,,,,,1.08,2.29,,,,100,0.586,0.630
,278826.700,1,1,,31,15,,,-37.8626788712,144.7422307829,19.1893,0.28,265.748,,0.06,-3.9,4.3,152.5,1.4,0.7,0.17,0.28,,,,0,0.584,0.628
2085,278826.800,1,0,,,15,2019-12-25,05:26:48.799,-37.8626785241,144.7422374031,18.9519,0.02,105.255,,-0.01,,,,,,1.08,2.29,,,,100,0.582,0.629
,278826.800,1,1,,,15,,,-37.8626788719,144.7422308134,19.1910,0.28,264.710,,0.05,-3.9,4.3,152.5,1.4,0.7,0.17,0.28,,,,0,0.580,0.627
2085,278826.900,1,0,,,15,2019-12-25,05:26:48.899,-37.8626785088,144.7422373759,18.9516,0.02,30.964,,0.02,,,,1.4,0.7,1.08,2.29,,,,100,0.578,0.625
,278826.900,1,1,,,15,,,-37.8626788686,144.7422308370,19.1926,0.27,265.077,,0.06,-3.9,4.3,152.6,,,0.17,0.28,,,,0,0.575,0.624
2085,278827.000,1,0,,,15,2019-12-25,05:26:48.999,-37.8626784989,144.7422373391,18.9517,0.03,270.000,,0.03,,,,1.4,0.7,1.08,2.29,,,,100,0.572,0.621
,278827.000,1,1,,,15,,,-37.8626788697,144.7422308503,19.1944,0.27,265.668,,0.06,-3.9,4.3,152.6,,,0.17,0.28,,,,0,0.571,0.621
2085,278827.100,1,0,,,15,2019-12-25,05:26:49.099,-37.8626785201,144.7422373423,18.9441,0.03,126.254,,-0.03,,,,1.4,0.7,1.08,2.29,,,,100,0.571,0.624
,278827.100,1,1,,,15,,,-37.8626788739,144.7422308829,19.1958,0.27,265.040,,0.05,-3.9,4.3,152.6,,,0.17,0.28,,,,0,0.568,0.622
2085,278827.200,1,0,,,15,2019-12-25,05:26:49.199,-37.8626785199,144.7422373620,18.9305,0.06,75.964,,-0.06,,,,1.4,0.7,1.08,2.29,,,,100,0.570,0.629
,278827.200,1,1,,25,15,,,-37.8626788718,144.7422309167,19.1958,0.27,264.983,,0.05,-3.9,4.3,152.6,,,0.17,0.28,,,,0,0.567,0.626
2085,278827.300,1,0,,,15,2019-12-25,05:26:49.299,-37.8626785229,144.7422373511,18.9265,0.02,262.875,,0.02,,,,,,1.08,2.29,,,,100,0.566,0.627
,278827.300,1,1,,,15,,,-37.8626788737,144.7422309328,19.1968,0.27,265.804,,0.06,-3.9,4.3,152.6,1.4,0.7,0.17,0.28,,,,0,0.565,0.626
2085,278827.400,1,0,,,15,2019-12-25,05:26:49.399,-37.8626785310,144.7422373408,18.9196,0.01,209.055,,0.01,,,,1.4,0.7,1.08,2.29,,,,100,0.564,0.628
,278827.400,1,1,,,15,,,-37.8626788773,144.7422309531,19.1981,0.27,265.584,,0.05,-3.9,4.3,152.6,,,0.17,0.28,,,,0,0.562,0.627
2085,278827.500,1,0,,,15,2019-12-25,05:26:49.499,-37.8626785299,144.7422373272,18.9107,0.01,233.130,,-0.01,,,,1.4,0.7,1.08,2.29,,,,100,0.561,0.630
,278827.500,1,1,,,15,,,-37.8626788778,144.7422309724,19.1987,0.27,264.945,,0.05,-3.9,4.3,152.6,,,0.17,0.28,,,,0,0.559,0.629
2085,278827.600,1,0,,,15,2019-12-25,05:26:49.599,-37.8626785022,144.7422373274,18.9082,0.04,21.801,,0.04,,,,1.4,0.7,1.08,2.29,,,,100,0.559,0.630
,278827.600,1,1,,,15,,,-37.8626788687,144.7422309971,19.1996,0.26,265.772,,0.06,-3.9,4.3,152.6,,,0.17,0.28,,,,0,0.557,0.629
2085,278827.700,1,0,,,15,2019-12-25,05:26:49.699,-37.8626785093,144.7422373028,18.8973,0.04,216.254,,-0.04,,,,,,1.08,2.29,,,,100,0.555,0.632
,278827.700,1,1,,31,15,,,-37.8626788753,144.7422310117,19.1997,0.26,265.978,,0.06,-3.9,4.3,152.6,1.4,0.7,0.17,0.28,,,,0,0.554,0.631
2085,278827.800,1,0,,,15,2019-12-25,05:26:49.799,-37.8626785078,144.7422372997,18.8875,0.01,149.036,,0.01,,,,,,1.08,2.29,,,,100,0.554,0.636
,278827.800,1,1,,,15,,,-37.8626788751,144.7422310355,19.2002,0.26,265.739,,0.05,-3.9,4.3,152.6,1.4,0.7,0.17,0.28,,,,0,0.551,0.634
2085,278827.900,1,0,,,15,2019-12-25,05:26:49.899,-37.8626784908,144.7422372793,18.8778,0.03,334.799,,0.02,,,,1.4,0.7,1.08,2.29,,,,100,0.550,0.637
,278827.900,1,1,,,15,,,-37.8626788658,144.7422310501,19.2003,0.26,266.125,,0.06,-3.9,4.3,152.6,,,0.17,0.28,,,,0,0.548,0.636
2085,278828.000,1,0,,,15,2019-12-25,05:26:49.999,-37.8626785020,144.7422372899,18.8610,0.02,122.735,,-0.02,,,,1.4,0.7,1.08,2.29,,,,100,0.549,0.646
,278828.000,1,1,,,15,,,-37.8626788686,144.7422310810,19.2000,0.26,265.914,,0.05,-3.9,4.3,152.6,,,0.17,0.28,,,,0,0.547,0.643
2085,278828.100,1,0,,,15,2019-12-25,05:26:50.099,-37.8626785094,144.7422372812,18.8460,0.01,230.194,,-0.00,,,,1.4,0.7,1.08,2.29,,,,100,0.546,0.651
,278828.100,1,1,,,15,,,-37.8626788686,144.7422311001,19.1997,0.26,265.462,,0.05,-3.9,4.3,152.6,,,0.17,0.28,,,,0,0.544,0.649
2085,278828.200,1,0,,,15,2019-12-25,05:26:50.199,-37.8626785118,144.7422372855,18.8268,0.04,66.801,,-0.04,,,,1.4,0.7,1.08,2.29,,,,100,0.544,0.660
,278828.200,1,1,,25,15,,,-37.8626788672,144.7422311245,19.1983,0.25,266.063,,0.06,-3.9,4.3,152.6,,,0.17,0.28,,,,0,0.542,0.657
2085,278828.300,1,0,,,15,2019-12-25,05:26:50.299,-37.8626785316,144.7422372798,18.8162,0.03,185.194,,0.03,,,,,,1.08,2.29,,,,100,0.542,0.663
,278828.300,1,1,,,15,,,-37.8626788719,144.7422311466,19.1980,0.25,265.849,,0.05,-3.9,4.3,152.7,1.4,0.7,0.17,0.28,,,,0,0.540,0.661
2085,278828.400,1,0,,,15,2019-12-25,05:26:50.399,-37.8626785324,144.7422372707,18.8024,0.01,315.000,,-0.01,,,,1.4,0.7,1.08,2.29,,,,100,0.539,0.669
,278828.400,1,1,,,15,,,-37.8626788662,144.7422311654,19.1970,0.25,265.619,,0.05,-3.9,4.3,152.7,,,0.17,0.28,,,,0,0.537,0.667
2085,278828.500,1,0,,,15,2019-12-25,05:26:50.499,-37.8626785367,144.7422372843,18.7894,0.02,102.529,,-0.01,,,,1.4,0.7,1.08,2.29,,,,100,0.538,0.675
,278828.500,1,1,,,15,,,-37.8626788680,144.7422311975,19.1954,0.25,266.453,,0.06,-3.9,4.3,152.7,,,0.17,0.28,,,,0,0.536,0.672
2085,278828.600,1,0,,,15,2019-12-25,05:26:50.599,-37.8626785178,144.7422372615,18.7812,0.04,319.899,,0.03,,,,1.4,0.7,1.08,2.29,,,,100,0.534,0.676
,278828.600,1,1,,,15,,,-37.8626788571,144.7422312103,19.1946,0.25,266.468,,0.05,-3.9,4.3,152.7,,,0.17,0.28,,,,0,0.533,0.674
2085,278828.700,1,0,,,15,2019-12-25,05:26:50.699,-37.8626784235,144.7422371790,18.7900,0.00,303.690,,-0.00,,,,,,1.08,2.29,,,,100,0.526,0.664
,278828.700,1,1,,31,15,,,-37.8626788517,144.7422312190,19.1934,0.25,265.781,,0.05,-3.9,4.3,152.7,1.4,0.7,0.17,0.28,,,,0,0.525,0.662
2085,278828.800,1,0,,,15,2019-12-25,05:26:50.799,-37.8626783342,144.7422370920,18.8006,0.02,203.199,,0.01,,,,,,1.08,2.29,,,,100,0.519,0.651
,278828.800,1,1,,,15,,,-37.8626788500,144.7422312238,19.1924,0.25,266.662,,0.05,-3.9,4.3,152.7,1.4,0.7,0.17,0.28,,,,0,0.518,0.650
2085,278828.900,1,0,,,15,2019-12-25,05:26:50.899,-37.8626782260,144.7422370050,18.8140,0.02,20.225,,0.01,,,,1.4,0.7,1.08,2.29,,,,100,0.512,0.637
,278828.900,1,1,,,15,,,-37.8626788335,144.7422312341,19.1917,0.25,266.675,,0.05,-4.0,4.3,152.7,,,0.17,0.28,,,,0,0.511,0.635
2085,278829.000,1,0,,,15,2019-12-25,05:26:50.999,-37.8626781296,144.7422368994,18.8245,0.02,284.036,,-0.02,,,,1.4,0.7,1.08,2.29,,,,100,0.503,0.623
,278829.000,1,1,,,15,,,-37.8626788213,144.7422312313,19.1908,0.25,266.031,,0.05,-4.0,4.3,152.7,,,0.17,0.28,,,,0,0.503,0.623
2085,278829.100,1,0,,,15,2019-12-25,05:26:51.099,-37.8626780220,144.7422368139,18.8387,0.03,0.000,,0.03,,,,1.4,0.7,1.08,2.29,,,,100,0.498,0.610
,278829.100,1,1,,,15,,,-37.8626788002,144.7422312311,19.1906,0.25,266.217,,0.05,-3.9,4.3,152.7,,,0.17,0.28,,,,0,0.498,0.610
2085,278829.200,1,0,,,15,2019-12-25,05:26:51.199,-37.8626779606,144.7422367254,18.8455,0.04,190.784,,-0.03,,,,1.4,0.7,1.08,2.29,,,,100,0.491,0.600
,278829.200,1,1,,25,15,,,-37.8626787971,144.7422312278,19.1897,0.25,266.900,,0.05,-3.9,4.3,152.7,,,0.17,0.28,,,,0,0.491,0.600
2085,278829.300,1,0,,,15,2019-12-25,05:26:51.299,-37.8626778843,144.7422366508,18.8565,0.01,168.690,,0.01,,,,,,1.08,2.29,,,,100,0.487,0.590
,278829.300,1,1,,,15,,,-37.8626787837,144.7422312278,19.1897,0.25,266.424,,0.05,-3.9,4.3,152.7,1.4,0.7,0.17,0.28,,,,0,0.486,0.590
2085,278829.400,1,0,,,15,2019-12-25,05:26:51.399,-37.8626777914,144.7422365670,18.8690,0.03,339.444,,0.03,,,,1.4,0.7,1.08,2.29,,,,100,0.482,0.579
,278829.400,1,1,,,15,,,-37.8626787583,144.7422312225,19.1899,0.24,266.409,,0.05,-3.9,4.3,152.7,,,0.17,0.28,,,,0,0.481,0.578
2085,278829.500,1,0,,,15,2019-12-25,05:26:51.499,-37.8626777766,144.7422365286,18.8649,0.03,168.690,,-0.03,,,,1.4,0.7,1.08,2.29,,,,100,0.478,0.578
,278829.500,1,1,,,15,,,-37.8626787437,144.7422312198,19.1893,0.24,266.860,,0.05,-3.9,4.3,152.7,,,0.17,0.28,,,,0,0.478,0.578
2085,278829.600,1,0,,,15,2019-12-25,05:26:51.599,-37.8626777700,144.7422364847,18.8611,0.02,306.870,,0.01,,,,1.4,0.7,1.08,2.29,,,,100,0.475,0.577
,278829.600,1,1,,,15,,,-37.8626787243,144.7422312108,19.1891,0.25,267.138,,0.05,-3.9,4.3,152.7,,,0.17,0.28,,,,0,0.475,0.577
2085,278829.700,1,0,,,15,2019-12-25,05:26:51.699,-37.8626777710,144.7422364613,18.8554,0.00,45.000,,-0.00,,,,,,1.08,2.29,,,,100,0.473,0.579
,278829.700,1,1,,31,15,,,-37.8626787053,144.7422312088,19.1889,0.25,267.138,,0.05,-3.9,4.3,152.8,1.4,0.7,0.17,0.28,,,,0,0.473,0.578
2085,278829.800,1,0,,,15,2019-12-25,05:26:51.799,-37.8626777983,144.7422364393,18.8439,0.01,180.000,,-0.01,,,,,,1.08,2.29,,,,100,0.470,0.583
,278829.800,1,1,,,15,,,-37.8626786883,144.7422312056,19.1882,0.24,267.825,,0.05,-3.9,4.3,152.8,1.4,0.7,0.17,0.28,,,,0,0.470,0.583
2085,278829.900,1,0,,,15,2019-12-25,05:26:51.899,-37.8626778329,144.7422364131,18.8336,0.01,0.000,,0.01,,,,1.4,0.7,1.08,2.29,,,,100,0.467,0.586
,278829.900,1,1,,,15,,,-37.8626786716,144.7422312012,19.1876,0.24,267.574,,0.06,-3.9,4.3,152.8,,,0.17,0.28,,,,0,0.467,0.586
2085,278830.000,1,0,,,15,2019-12-25,05:26:51.999,-37.8626778690,144.7422363871,18.8223,0.02,203.199,,-0.02,,,,1.4,0.7,1.08,2.29,,,,100,0.464,0.591
,278830.000,1,1,,,15,,,-37.8626786611,144.7422311953,19.1866,0.24,266.900,,0.05,-3.9,4.3,152.8,,,0.17,0.28,,,,0,0.464,0.590
2085,278830.100,1,0,,,15,2019-12-25,05:26:52.099,-37.8626778815,144.7422363441,18.8160,0.02,264.289,,-0.01,,,,1.4,0.7,1.08,2.29,,,,100,0.460,0.591
,278830.100,1,1,,,15,,,-37.8626786468,144.7422311850,19.1854,0.24,268.059,,0.05,-3.9,4.3,152.8,,,0.17,0.28,,,,0,0.461,0.591
2085,278830.200,1,0,,,15,2019-12-25,05:26:52.199,-37.8626778881,144.7422363343,18.8141,0.03,17.103,,0.03,,,,1.4,0.7,1.08,2.29,,,,100,0.460,0.591
,278830.200,1,1,,25,15,,,-37.8626786258,144.7422311918,19.1847,0.24,268.506,,0.05,-3.9,4.3,152.8,,,0.17,0.28,,,,0,0.459,0.590
2085,278830.300,1,0,,,15,2019-12-25,05:26:52.299,-37.8626779034,144.7422363449,18.8081,0.04,94.764,,-0.03,,,,,,1.08,2.29,,,,100,0.459,0.594
,278830.300,1,1,,,15,,,-37.8626786130,144.7422312127,19.1832,0.24,268.025,,0.05,-4.0,4.3,152.8,1.4,0.7,0.17,0.28,,,,0,0.457,0.592
2085,278830.400,1,0,,,15,2019-12-25,05:26:52.399,-37.8626778965,144.7422363382,18.8071,0.04,8.531,,0.03,,,,1.4,0.7,1.08,2.29,,,,100,0.457,0.592
,278830.400,1,1,,,15,,,-37.8626785885,144.7422312188,19.1827,0.24,268.067,,0.04,-3.9,4.3,152.8,,,0.17,0.28,,,,0,0.456,0.591
2085,278830.500,1,0,,,15,2019-12-25,05:26:52.499,-37.8626779315,144.7422363037,18.7981,0.03,252.759,,-0.02,,,,1.4,0.7,1.08,2.29,,,,100,0.452,0.594
,278830.500,1,1,,,15,,,-37.8626785814,144.7422311991,19.1810,0.24,268.544,,0.05,-3.9,4.3,152.8,,,0.17,0.28,,,,0,0.454,0.594
2085,278830.600,1,0,,,15,2019-12-25,05:26:52.599,-37.8626779747,144.7422362989,18.7888,0.02,192.529,,-0.01,,,,1.4,0.7,1.08,2.29,,,,100,0.453,0.599
,278830.600,1,1,,,15,,,-37.8626785830,144.7422312017,19.1799,0.23,261.724,,0.05,-3.9,4.4,152.8,,,0.17,0.28,,,,0,0.453,0.598
2085,278830.700,1,0,,,15,2019-12-25,05:26:52.699,-37.8626780252,144.7422363386,18.7783,0.03,136.332,,-0.01,,,,,,1.08,2.29,,,,100,0.455,0.607
,278830.700,1,1,,31,15,,,-37.8626785966,144.7422312310,19.1783,0.21,254.316,,0.04,-3.9,4.4,152.8,1.4,0.7,0.17,0.28,,,,0,0.453,0.604
2085,278830.800,1,0,,,15,2019-12-25,05:26:52.799,-37.8626781287,144.7422363860,18.7682,0.08,160.821,,0.03,,,,,,1.08,2.29,,,,100,0.456,0.613
,278830.800,1,1,,,15,,,-37.8626786475,144.7422312682,19.1765,0.21,246.501,,0.05,-3.9,4.4,152.8,1.4,0.7,0.17,0.28,,,,0,0.453,0.610
2085,278830.900,1,0,,,15,2019-12-25,05:26:52.899,-37.8626782628,144.7422364658,18.7535,0.12,149.036,,-0.03,,,,1.4,0.7,1.08,2.29,,,,100,0.458,0.624
,278830.900,1,1,,,15,,,-37.8626787241,144.7422313376,19.1745,0.21,238.846,,0.05,-4.0,4.4,152.8,,,0.17,0.28,,,,0,0.453,0.619
2085,278831.000,1,0,,,15,2019-12-25,05:26:52.999,-37.8626784071,144.7422365205,18.7433,0.12,163.926,,0.01,,,,1.4,0.7,1.08,2.29,,,,100,0.456,0.628
,278831.000,1,1,,,15,,,-37.8626788205,144.7422313957,19.1730,0.22,230.959,,0.05,-3.9,4.4,152.8,,,0.17,0.28,,,,0,0.452,0.624
2085,278831.100,1,0,,,15,2019-12-25,05:26:53.099,-37.8626785989,144.7422365862,18.7256,0.18,163.872,,-0.03,,,,1.4,0.7,1.08,2.29,,,,100,0.456,0.639
,278831.100,1,1,,,15,,,-37.8626789533,144.7422314683,19.1704,0.22,223.462,,0.05,-3.9,4.4,152.9,,,0.17,0.28,,,,0,0.451,0.633
2085,278831.200,1,0,,,15,2019-12-25,05:26:53.199,-37.8626788010,144.7422366835,18.7048,0.20,156.801,,-0.03,,,,1.4,0.7,1.08,2.29,,,,100,0.458,0.653
,278831.200,1,1,,25,15,,,-37.8626791027,144.7422315622,19.1680,0.23,216.718,,0.05,-4.0,4.4,152.9,,,0.17,0.28,,,,0,0.451,0.646
2085,278831.300,1,0,,,15,2019-12-25,05:26:53.299,-37.8626789984,144.7422367781,18.6864,0.21,157.852,,-0.00,,,,,,1.08,2.29,,,,100,0.458,0.665
,278831.300,1,1,,,15,,,-37.8626792740,144.7422316611,19.1655,0.24,210.551,,0.06,-3.9,4.4,152.9,1.4,0.7,0.17,0.28,,,,0,0.450,0.658
2085,278831.400,1,0,,,15,2019-12-25,05:26:53.399,-37.8626792195,144.7422368567,18.6689,0.24,164.578,,-0.00,,,,1.4,0.7,1.08,2.29,,,,100,0.456,0.674
,278831.400,1,1,,,15,,,-37.8626794739,144.7422317599,19.1633,0.27,203.085,,0.06,-3.9,4.4,153.0,,,0.17,0.28,,,,0,0.448,0.667
2085,278831.500,1,0,,,15,2019-12-25,05:26:53.499,-37.8626795027,144.7422369645,18.6496,0.31,163.104,,-0.01,,,,1.4,0.7,1.08,2.29,,,,100,0.457,0.688
,278831.500,1,1,,,15,,,-37.8626797313,144.7422318894,19.1613,0.36,189.462,,0.07,-4.0,4.6,153.0,,,0.17,0.28,,,,0,0.446,0.679
2085,278831.600,1,0,,,15,2019-12-25,05:26:53.599,-37.8626798697,144.7422371661,18.6270,0.43,156.147,,-0.07,,,,1.4,0.7,1.08,2.29,,,,100,0.463,0.707
,278831.600,1,1,,,15,,,-37.8626800933,144.7422321022,19.1596,0.52,177.428,,0.08,-4.0,4.8,153.1,,,0.17,0.28,,,,0,0.445,0.694
2085,278831.700,1,0,,,15,2019-12-25,05:26:53.699,-37.8626803977,144.7422374239,18.6154,0.61,160.529,,0.04,,,,1.4,0.7,1.08,2.29,,,,100,0.468,0.718
,278831.700,1,1,,31,15,,,-37.8626806156,144.7422323764,19.1597,0.69,171.858,,0.09,-4.0,4.9,153.3,,,0.17,0.28,,,,0,0.444,0.702
2085,278831.800,1,0,,,15,2019-12-25,05:26:53.799,-37.8626811276,144.7422377605,18.6000,0.84,161.673,,0.02,,,,1.4,0.7,1.08,2.29,,,,100,0.476,0.735
,278831.800,1,1,,,15,,,-37.8626813208,144.7422327315,19.1600,0.91,167.795,,0.10,-4.0,5.0,153.5,,,0.17,0.28,,,,0,0.442,0.713
2085,278831.900,1,0,,,15,2019-12-25,05:26:53.899,-37.8626820408,144.7422381705,18.5747,1.07,161.565,,-0.11,,,,1.4,0.7,1.08,2.29,,,,100,0.484,0.760
,278831.900,1,1,,,15,,,-37.8626822164,144.7422331805,19.1593,1.13,165.533,,0.11,-4.0,5.1,153.8,,,0.17,0.28,,,,0,0.438,0.731
2085,278832.000,1,0,,,15,2019-12-25,05:26:53.999,-37.8626831276,144.7422386152,18.5571,1.26,163.035,,-0.04,,,,1.4,0.7,1.08,2.29,,,,100,0.488,0.775
,278832.000,1,1,,,15,,,-37.8626832950,144.7422336952,19.1595,1.36,164.275,,0.11,-4.0,5.2,154.2,,,0.17,0.28,,,,0,0.432,0.741
2085,278832.100,1,0,,,15,2019-12-25,05:26:54.099,-37.8626844014,144.7422390739,18.5565,1.48,164.636,,0.12,,,,1.4,0.7,1.08,2.29,,,,100,0.488,0.776
,278832.100,1,1,,,15,,,-37.8626845714,144.7422342689,19.1624,1.60,163.287,,0.12,-4.0,5.3,154.6,,,0.17,0.28,,,,0,0.422,0.738
2085,278832.200,1,0,,,15,2019-12-25,05:26:54.199,-37.8626858997,144.7422396711,18.5522,1.76,162.494,,0.07,,,,1.4,0.7,1.08,2.29,,,,100,0.497,0.787
,278832.200,1,1,,25,15,,,-37.8626860650,144.7422349701,19.1656,1.85,162.900,,0.14,-4.0,5.4,155.1,,,0.17,0.28,,,,0,0.413,0.740
2085,278832.300,1,0,,,15,2019-12-25,05:26:54.299,-37.8626876555,144.7422402255,18.5446,2.02,165.401,,0.03,,,,,,1.08,2.29,,,,100,0.494,0.794
,278832.300,1,1,,,15,,,-37.8626877959,144.7422356947,19.1695,2.10,162.931,,0.15,-4.0,5.4,155.7,1.4,0.7,0.17,0.28,,,,0,0.398,0.741
2085,278832.400,1,0,,,15,2019-12-25,05:26:54.399,-37.8626895554,144.7422409382,18.5322,2.21,162.539,,-0.01,,,,1.4,0.7,1.08,2.29,,,,100,0.500,0.810
,278832.400,1,1,,,15,,,-37.8626896962,144.7422365489,19.1731,2.33,162.999,,0.16,-4.0,5.5,156.4,,,0.17,0.28,,,,0,0.386,0.748
2085,278832.500,1,0,,,15,2019-12-25,05:26:54.499,-37.8626916774,144.7422416438,18.5130,2.45,164.456,,-0.07,,,,1.4,0.7,1.08,2.29,,,,100,0.499,0.827
,278832.500,1,1,,,15,,,-37.8626918087,144.7422374199,19.1764,2.54,163.537,,0.17,-3.9,5.5,157.2,,,0.17,0.28,,,,0,0.371,0.760
2085,278832.600,1,0,,,15,2019-12-25,05:26:54.599,-37.8626939951,144.7422423086,18.5034,2.63,166.513,,0.05,,,,1.4,0.7,1.08,2.29,,,,100,0.493,0.834
,278832.600,1,1,,,15,,,-37.8626941031,144.7422382725,19.1818,2.74,164.072,,0.17,-3.9,5.6,158.0,,,0.17,0.28,,,,0,0.355,0.765
2085,278832.700,1,0,,,15,2019-12-25,05:26:54.699,-37.8626966145,144.7422429761,18.4881,2.87,167.083,,0.01,,,,1.4,0.7,1.08,2.29,,,,100,0.498,0.854
,278832.700,1,1,,31,15,,,-37.8626965952,144.7422391456,19.1871,2.92,164.645,,0.18,-3.9,5.6,158.9,,,0.17,0.28,,,,0,0.336,0.776
2085,278832.800,1,0,,,15,2019-12-25,05:26:54.799,-37.8626993080,144.7422437382,18.4719,2.97,165.968,,0.03,,,,,,1.08,2.29,,,,100,0.504,0.875
,278832.800,1,1,,,15,,,-37.8626992036,144.7422400646,19.1943,3.12,165.375,,0.22,-3.8,5.6,159.8,1.5,0.7,0.17,0.28,,,,0,0.323,0.791
2085,278832.900,1,0,,,15,2019-12-25,05:26:54.899,-37.8627022867,144.7422443803,18.4478,3.26,169.014,,-0.07,,,,1.5,0.7,1.08,2.29,,,,100,0.511,0.905
,278832.900,1,1,,,15,,,-37.8627020779,144.7422408780,19.2016,3.30,166.090,,0.23,-3.7,5.6,160.9,,,0.17,0.28,,,,0,0.308,0.814
2085,278833.000,1,0,,,15,2019-12-25,05:26:54.999,-37.8627053584,144.7422450840,18.4364,3.38,168.537,,0.05,,,,1.5,0.7,1.08,2.29,,,,100,0.519,0.925
,278833.000,1,1,,,15,,,-37.8627050668,144.7422417406,19.2101,3.44,166.611,,0.22,-3.6,5.6,161.9,,,0.17,0.28,,,,0,0.295,0.828
2085,278833.100,1,0,,,15,2019-12-25,05:26:55.099,-37.8627085649,144.7422457366,18.4262,3.52,169.749,,0.07,,,,1.5,0.7,1.08,2.29,,,,100,0.524,0.943
,278833.100,1,1,,,15,,,-37.8627081938,144.7422425540,19.2185,3.58,167.186,,0.23,-3.6,5.6,162.9,,,0.17,0.28,,,,0,0.282,0.841
2085,278833.200,1,0,,,15,2019-12-25,05:26:55.199,-37.8627118872,144.7422464048,18.4083,3.67,169.801,,0.00,,,,1.5,0.7,1.08,2.29,,,,100,0.532,0.969
,278833.200,1,1,,25,15,,,-37.8627114503,144.7422433843,19.2268,3.70,167.658,,0.24,-3.5,5.6,163.8,,,0.17,0.28,,,,0,0.270,0.862
2085,278833.300,1,0,,,15,2019-12-25,05:26:55.299,-37.8627152752,144.7422470215,18.4026,3.74,170.706,,0.12,,,,,,1.08,2.29,,,,100,0.532,0.981
,278833.300,1,1,,,15,,,-37.8627147872,144.7422441677,19.2372,3.81,167.966,,0.24,-3.4,5.6,164.7,1.5,0.7,0.17,0.28,,,,0,0.256,0.873
2085,278833.400,1,0,,,15,2019-12-25,05:26:55.399,-37.8627188107,144.7422476637,18.3829,3.91,170.690,,-0.02,,,,1.5,0.7,1.08,2.29,,,,100,0.543,1.012
,278833.400,1,1,,,15,,,-37.8627182599,144.7422449723,19.2456,3.91,168.007,,0.25,-3.2,5.6,165.4,,,0.17,0.28,,,,0,0.244,0.897
2085,278833.500,1,0,,,15,2019-12-25,05:26:55.499,-37.8627224704,144.7422483374,18.3802,4.06,170.721,,0.09,,,,1.5,0.7,1.08,2.29,,,,100,0.554,1.027
,278833.500,1,1,,,15,,,-37.8627218552,144.7422457971,19.2558,4.00,167.899,,0.26,-3.2,5.6,166.0,,,0.16,0.28,,,,0,0.233,0.906
2085,278833.600,1,0,,,15,2019-12-25,05:26:55.599,-37.8627262166,144.7422490475,18.3661,4.14,170.433,,-0.03,,,,1.5,0.7,1.08,2.29,,,,100,0.563,1.053
,278833.600,1,1,,,15,,,-37.8627255248,144.7422466565,19.2646,4.10,167.626,,0.27,-3.1,5.7,166.4,,,0.16,0.28,,,,0,0.224,0.926
2085,278833.700,1,0,,,15,2019-12-25,05:26:55.699,-37.8627301127,144.7422497376,18.3624,4.30,170.991,,0.03,,,,1.5,0.7,1.08,2.29,,,,100,0.577,1.071
,278833.700,1,1,,31,15,,,-37.8627293298,144.7422475029,19.2742,4.18,167.299,,0.26,-3.0,5.6,166.7,,,0.16,0.28,,,,0,0.215,0.937
2085,278833.800,1,0,,,15,2019-12-25,05:26:55.799,-37.8627340820,144.7422504461,18.3701,4.40,170.826,,0.11,,,,1.5,0.7,1.08,2.29,,,,100,0.588,1.079
,278833.800,1,1,,,15,,,-37.8627332179,144.7422483776,19.2845,4.26,166.873,,0.26,-2.8,5.6,166.8,,,0.16,0.28,,,,0,0.205,0.937
2085,278833.900,1,0,,,15,2019-12-25,05:26:55.899,-37.8627380720,144.7422512127,18.3839,4.51,170.178,,0.09,,,,1.4,0.7,1.08,2.29,,,,100,0.594,1.079
,278833.900,1,1,,,15,,,-37.8627371211,144.7422493952,19.2949,4.33,166.163,,0.26,-2.7,5.5,166.8,,,0.16,0.28,,,,0,0.191,0.931
2085,278834.000,1,0,,,15,2019-12-25,05:26:55.999,-37.8627421170,144.7422520797,18.3808,4.60,169.174,,-0.07,,,,1.4,0.7,1.08,2.29,,,,100,0.603,1.095
,278834.000,1,1,,,15,,,-37.8627410861,144.7422505028,19.3040,4.41,165.368,,0.26,-2.6,5.4,166.5,,,0.16,0.28,,,,0,0.180,0.941
2085,278834.100,1,0,,,15,2019-12-25,05:26:56.099,-37.8627462648,144.7422530115,18.3979,4.71,168.762,,0.13,,,,1.4,0.7,1.08,2.29,,,,100,0.617,1.096
,278834.100,1,1,,,15,,,-37.8627451344,144.7422516702,19.3150,4.50,164.692,,0.26,-2.5,5.4,166.2,,,0.16,0.28,,,,0,0.172,0.933
2085,278834.200,1,0,,,15,2019-12-25,05:26:56.199,-37.8627505617,144.7422540610,18.3937,4.88,167.981,,-0.07,,,,1.4,0.7,1.08,2.29,,,,100,0.639,1.121
,278834.200,1,1,,25,15,,,-37.8627492868,144.7422529247,19.3234,4.57,164.077,,0.26,-2.5,5.3,165.8,,,0.17,0.28,,,,0,0.173,0.946
2085,278834.300,1,0,,,15,2019-12-25,05:26:56.299,-37.8627548842,144.7422551648,18.4052,4.91,167.514,,0.09,,,,1.4,0.7,1.08,2.29,,,,100,0.653,1.127
,278834.300,1,1,,,15,,,-37.8627534842,144.7422542311,19.3324,4.64,163.616,,0.24,-2.3,5.2,165.3,,,0.17,0.28,,,,0,0.176,0.944
2085,278834.400,1,0,,,15,2019-12-25,05:26:56.399,-37.8627593382,144.7422563763,18.4011,4.98,166.496,,-0.04,,,,1.4,0.7,1.08,2.29,,,,100,0.678,1.152
,278834.400,1,1,,,15,,,-37.8627577476,144.7422556283,19.3398,4.72,163.104,,0.25,-2.3,5.1,164.8,,,0.17,0.28,,,,0,0.189,0.957
2085,278834.500,1,0,,,15,2019-12-25,05:26:56.499,-37.8627638731,144.7422577017,18.3961,5.09,165.846,,-0.00,,,,1.4,0.7,1.08,2.29,,,,100,0.705,1.178
,278834.500,1,1,,,15,,,-37.8627621025,144.7422571063,19.3475,4.82,162.657,,0.24,-2.2,5.0,164.4,,,0.17,0.28,,,,0,0.204,0.973
2085,278834.600,1,0,,,15,2019-12-25,05:26:56.599,-37.8627685127,144.7422590912,18.3989,5.23,165.666,,0.04,,,,1.5,0.7,1.08,2.29,,,,100,0.734,1.199
,278834.600,1,1,,,15,,,-37.8627666638,144.7422585772,19.3553,4.92,162.258,,0.26,-2.1,5.0,164.0,,,0.17,0.28,,,,0,0.210,0.979
2085,278834.700,1,0,,,15,2019-12-25,05:26:56.699,-37.8627731730,144.7422605461,18.4026,5.27,165.167,,0.07,,,,1.5,0.7,1.08,2.29,,,,100,0.744,1.209
,278834.700,1,1,,31,15,,,-37.8627712290,144.7422601102,19.3634,5.07,161.966,,0.25,-2.0,4.9,163.6,,,0.17,0.28,,,,0,0.220,0.986
2085,278834.800,1,0,,,15,2019-12-25,05:26:56.799,-37.8627780092,144.7422620587,18.3994,5.48,165.081,,-0.02,,,,1.5,0.7,1.08,2.29,,,,100,0.773,1.236
,278834.800,1,1,,,15,,,-37.8627759645,144.7422616982,19.3707,5.24,161.569,,0.27,-1.8,5.0,163.2,,,0.17,0.28,,,,0,0.230,0.998
2085,278834.900,1,0,,,15,2019-12-25,05:26:56.899,-37.8627829858,144.7422637672,18.4023,5.67,163.839,,0.02,,,,,,1.08,2.29,,,,100,0.802,1.257
,278834.900,1,1,,,15,,,-37.8627808263,144.7422634675,19.3784,5.36,160.868,,0.25,-1.8,4.9,162.8,1.5,0.7,0.16,0.28,,,,0,0.242,1.006
2085,278835.000,1,0,,,15,2019-12-25,05:26:56.999,-37.8627880200,144.7422655128,18.4086,5.75,163.599,,0.02,,,,,,1.08,2.29,,,,100,0.820,1.270
,278835.000,1,1,,,15,,,-37.8627857693,144.7422652905,19.3838,5.47,160.338,,0.23,-1.6,4.8,162.4,1.6,0.7,0.16,0.28,,,,0,0.251,1.007
2085,278835.100,1,0,,,15,2019-12-25,05:26:57.099,-37.8627931665,144.7422674038,18.4119,5.90,162.720,,-0.00,,,,1.6,0.7,1.07,2.29,,,,100,0.843,1.287
,278835.100,1,1,,,15,,,-37.8627908145,144.7422672497,19.3888,5.61,159.637,,0.24,-1.4,4.8,161.8,,,0.16,0.28,,,,0,0.262,1.011
2085,278835.200,1,0,,,15,2019-12-25,05:26:57.199,-37.8627983519,144.7422694273,18.4167,5.99,161.774,,0.01,,,,1.6,0.7,1.07,2.29,,,,100,0.860,1.298
,278835.200,1,1,,25,15,,,-37.8627959168,144.7422693468,19.3945,5.73,158.947,,0.25,-1.3,4.7,161.3,,,0.16,0.28,,,,0,0.271,1.015
2085,278835.300,1,0,,,15,2019-12-25,05:26:57.299,-37.8628036540,144.7422716824,18.4156,6.17,160.444,,-0.05,,,,1.6,0.7,1.07,2.29,,,,100,0.884,1.319
,278835.300,1,1,,,15,,,-37.8628011224,144.7422716482,19.3987,5.84,158.175,,0.23,-1.2,4.6,160.7,,,0.16,0.28,,,,0,0.282,1.023
2085,278835.400,1,0,,,15,2019-12-25,05:26:57.399,-37.8628090110,144.7422740446,18.4267,6.26,159.807,,0.10,,,,1.6,0.7,1.07,2.29,,,,100,0.902,1.326
,278835.400,1,1,,,15,,,-37.8628063868,144.7422740584,19.4047,5.96,157.488,,0.23,-1.3,4.5,160.1,,,0.16,0.28,,,,0,0.292,1.021
2085,278835.500,1,0,,,15,2019-12-25,05:26:57.499,-37.8628143769,144.7422765421,18.4304,6.31,158.805,,0.01,,,,1.6,0.7,1.07,2.29,,,,100,0.915,1.336
,278835.500,1,1,,,15,,,-37.8628116809,144.7422766161,19.4087,6.08,156.809,,0.22,-1.2,4.5,159.5,,,0.16,0.28,,,,0,0.300,1.023
2085,278835.600,1,0,,,15,2019-12-25,05:26:57.599,-37.8628198858,144.7422791191,18.4343,6.49,158.784,,-0.00,,,,1.6,0.7,1.07,2.29,,,,100,0.938,1.353
,278835.600,1,1,,,15,,,-37.8628171067,144.7422792434,19.4118,6.20,156.277,,0.21,-1.2,4.4,158.9,,,0.16,0.28,,,,0,0.309,1.025
2085,278835.700,1,0,,,15,2019-12-25,05:26:57.699,-37.8628254969,144.7422818840,18.4393,6.66,157.892,,0.02,,,,1.6,0.7,1.07,2.29,,,,100,0.961,1.367
,278835.700,1,1,,31,15,,,-37.8628226345,144.7422820364,19.4139,6.35,155.822,,0.20,-1.2,4.3,158.3,,,0.16,0.28,,,,0,0.319,1.025
2085,278835.800,1,0,,,15,2019-12-25,05:26:57.799,-37.8628311861,144.7422847734,18.4438,6.78,157.257,,0.01,,,,1.6,0.7,1.07,2.29,,,,100,0.981,1.380
,278835.800,1,1,,,15,,,-37.8628282473,144.7422849570,19.4156,6.49,155.443,,0.20,-1.1,4.2,157.8,,,0.16,0.28,,,,0,0.327,1.025
2085,278835.900,1,0,,,15,2019-12-25,05:26:57.899,-37.8628369268,144.7422878217,18.4558,6.90,156.389,,0.06,,,,,,1.07,2.29,,,,100,0.997,1.384
,278835.900,1,1,,,15,,,-37.8628339253,144.7422880350,19.4180,6.60,155.001,,0.20,-1.2,4.0,157.4,1.6,0.7,0.16,0.28,,,,0,0.334,1.019
2085,278836.000,1,0,,,15,2019-12-25,05:26:57.999,-37.8628426924,144.7422910018,18.4526,6.98,155.665,,-0.10,,,,1.6,0.7,1.07,2.29,,,,100,1.009,1.396
,278836.000,1,1,,,15,,,-37.8628396476,144.7422912463,19.4180,6.74,154.717,,0.20,-1.3,4.1,156.9,,,0.16,0.28,,,,0,0.339,1.023
2085,278836.100,1,0,,,15,2019-12-25,05:26:58.099,-37.8628485283,144.7422942075,18.4558,7.05,155.809,,-0.01,,,,,,1.07,2.29,,,,100,1.021,1.403
,278836.100,1,1,,,15,,,-37.8628454493,144.7422944879,19.4199,6.88,154.609,,0.18,-1.3,4.1,156.6,1.5,0.7,0.16,0.28,,,,0,0.343,1.023
2085,278836.200,1,0,,,15,2019-12-25,05:26:58.199,-37.8628545027,144.7422975239,18.4587,7.23,155.722,,0.00,,,,1.5,0.7,1.07,2.29,,,,100,1.041,1.417
,278836.200,1,1,,25,15,,,-37.8628513801,144.7422978133,19.4201,6.98,154.398,,0.17,-1.3,4.1,156.3,,,0.16,0.28,,,,0,0.348,1.022
2085,278836.300,1,0,,,15,2019-12-25,05:26:58.299,-37.8628605503,144.7423009990,18.4503,7.36,155.057,,-0.09,,,,1.5,0.7,1.07,2.29,,,,100,1.057,1.435
,278836.300,1,1,,,15,,,-37.8628573824,144.7423012758,19.4185,7.08,154.108,,0.17,-1.2,3.9,156.1,,,0.16,0.28,,,,0,0.353,1.031
2085,278836.400,1,0,,,15,2019-12-25,05:26:58.399,-37.8628666082,144.7423045840,18.4442,7.42,154.427,,-0.08,,,,1.5,0.7,1.07,2.29,,,,100,1.066,1.444
,278836.400,1,1,,,15,,,-37.8628634093,144.7423048499,19.4171,7.16,153.782,,0.17,-1.2,3.8,155.8,,,0.16,0.28,,,,0,0.356,1.036
2085,278836.500,1,0,,,15,2019-12-25,05:26:58.499,-37.8628726838,144.7423081929,18.4438,7.45,154.291,,-0.03,,,,1.5,0.7,1.07,2.29,,,,100,1.072,1.448
,278836.500,1,1,,,15,,,-37.8628694650,144.7423084710,19.4158,7.22,153.399,,0.17,-1.3,3.7,155.5,,,0.16,0.28,,,,0,0.359,1.036
2085,278836.600,1,0,,,15,2019-12-25,05:26:58.599,-37.8628787774,144.7423118784,18.4445,7.48,153.877,,-0.03,,,,1.5,0.7,1.07,2.29,,,,100,1.078,1.451
,278836.600,1,1,,,15,,,-37.8628755343,144.7423121709,19.4149,7.30,153.038,,0.17,-1.3,3.7,155.2,,,0.16,0.28,,,,0,0.362,1.036
2085,278836.700,1,0,,,15,2019-12-25,05:26:58.699,-37.8628849376,144.7423156422,18.4423,7.57,153.739,,-0.03,,,,1.5,0.7,1.07,2.29,,,,100,1.089,1.460
,278836.700,1,1,,31,15,,,-37.8628816646,144.7423159319,19.4136,7.36,152.874,,0.15,-1.2,3.8,155.0,,,0.16,0.28,,,,0,0.365,1.038
2085,278836.800,1,0,,,15,2019-12-25,05:26:58.799,-37.8628911502,144.7423195375,18.4383,7.68,153.295,,-0.02,,,,1.5,0.7,1.07,2.29,,,,100,1.101,1.471
,278836.800,1,1,,,15,,,-37.8628878494,144.7423197958,19.4113,7.43,152.569,,0.16,-1.2,3.7,154.7,,,0.16,0.28,,,,0,0.368,1.040
2085,278836.900,1,0,,,15,2019-12-25,05:26:58.899,-37.8628973355,144.7423234889,18.4387,7.68,152.861,,0.03,,,,,,1.07,2.29,,,,100,1.104,1.471
,278836.900,1,1,,,15,,,-37.8628940280,144.7423237298,19.4102,7.49,152.298,,0.16,-1.2,3.7,154.4,1.5,0.7,0.16,0.28,,,,0,0.368,1.039
2085,278837.000,1,0,,,15,2019-12-25,05:26:58.999,-37.8629035391,144.7423275223,18.4270,7.74,152.541,,-0.10,,,,1.5,0.7,1.07,2.29,,,,100,1.109,1.482
,278837.000,1,1,,,15,,,-37.8629002320,144.7423277338,19.4057,7.53,152.101,,0.13,-1.3,3.6,154.2,,,0.16,0.28,,,,0,0.368,1.046
2085,278837.100,1,0,,,15,2019-12-25,05:26:59.099,-37.8629097586,144.7423316003,18.4221,7.78,152.345,,-0.05,,,,1.5,0.7,1.07,2.29,,,,100,1.112,1.485
,278837.100,1,1,,,15,,,-37.8629064605,144.7423317909,19.4006,7.59,151.793,,0.13,-1.3,3.5,153.9,,,0.16,0.28,,,,0,0.367,1.045
2085,278837.200,1,0,,,15,2019-12-25,05:26:59.199,-37.8629159217,144.7423357603,18.4195,7.82,152.019,,-0.01,,,,1.4,0.7,1.07,2.29,,,,100,1.108,1.480
,278837.200,1,1,,25,15,,,-37.8629126581,144.7423359060,19.3968,7.62,151.538,,0.12,-1.4,3.4,153.7,,,0.16,0.28,,,,0,0.363,1.043
2085,278837.300,1,0,,,15,2019-12-25,05:26:59.299,-37.8629221417,144.7423399960,18.4144,7.85,151.472,,-0.01,,,,1.4,0.7,1.07,2.29,,,,100,1.114,1.485
,278837.300,1,1,,,15,,,-37.8629188628,144.7423400982,19.3920,7.67,151.308,,0.11,-1.4,3.3,153.4,,,0.16,0.28,,,,0,0.365,1.043
2085,278837.400,1,0,,,15,2019-12-25,05:26:59.399,-37.8629283518,144.7423442901,18.4122,7.88,151.049,,-0.02,,,,1.4,0.7,1.07,2.29,,,,100,1.117,1.486
,278837.400,1,1,,,15,,,-37.8629250744,144.7423443593,19.3861,7.71,151.064,,0.10,-1.6,3.3,153.2,,,0.16,0.28,,,,0,0.364,1.040
2085,278837.500,1,0,,,15,2019-12-25,05:26:59.499,-37.8629346094,144.7423485770,18.4141,7.92,151.240,,0.05,,,,1.4,0.7,1.07,2.29,,,,100,1.123,1.485
,278837.500,1,1,,,15,,,-37.8629313241,144.7423486332,19.3812,7.75,151.100,,0.10,-1.7,3.3,153.0,,,0.16,0.28,,,,0,0.365,1.034
2085,278837.600,1,0,,,15,2019-12-25,05:26:59.599,-37.8629408295,144.7423528528,18.4069,7.87,151.147,,-0.03,,,,1.4,0.7,1.07,2.29,,,,100,1.120,1.484
,278837.600,1,1,,,15,,,-37.8629375717,144.7423529152,19.3753,7.79,151.235,,0.11,-1.9,3.4,152.9,,,0.16,0.28,,,,0,0.362,1.034
2085,278837.700,1,0,,,15,2019-12-25,05:26:59.699,-37.8629471226,144.7423572139,18.3805,7.98,150.997,,-0.20,,,,1.4,0.7,1.07,2.29,,,,100,1.127,1.503
,278837.700,1,1,,31,15,,,-37.8629438764,144.7423572364,19.3677,7.83,151.438,,0.10,-2.0,3.4,152.9,,,0.16,0.28,,,,0,0.361,1.051
2085,278837.800,1,0,,,15,2019-12-25,05:26:59.799,-37.8629533948,144.7423615453,18.3705,7.94,151.083,,-0.04,,,,1.4,0.7,1.07,2.29,,,,100,1.124,1.503
,278837.800,1,1,,,15,,,-37.8629501854,144.7423615429,19.3623,7.86,151.592,,0.12,-2.1,3.4,153.0,,,0.16,0.28,,,,0,0.357,1.054
2085,278837.900,1,0,,,15,2019-12-25,05:26:59.899,-37.8629596835,144.7423658183,18.3685,7.94,151.449,,0.04,,,,,,1.07,2.29,,,,100,1.121,1.498
,278837.900,1,1,,,15,,,-37.8629565181,144.7423658172,19.3586,7.88,151.750,,0.12,-2.2,3.5,153.1,1.4,0.7,0.16,0.28,,,,0,0.352,1.051
2085,278838.000,1,0,,,15,2019-12-25,05:26:59.999,-37.8629660263,144.7423701352,18.3592,8.00,151.305,,-0.04,,,,1.4,0.7,1.07,2.29,,,,100,1.123,1.503
,278838.000,1,1,,,15,,,-37.8629628845,144.7423701199,19.3537,7.91,151.838,,0.11,-2.3,3.5,153.2,,,0.16,0.28,,,,0,0.349,1.054
2085,278838.100,1,0,,,15,2019-12-25,05:27:00.099,-37.8629723223,144.7423744231,18.3490,8.00,151.603,,-0.05,,,,1.4,0.7,1.07,2.29,,,,100,1.115,1.501
,278838.100,1,1,,,15,,,-37.8629692762,144.7423743968,19.3480,7.94,152.041,,0.11,-2.3,3.5,153.3,,,0.16,0.28,,,,0,0.339,1.055
2085,278838.200,1,0,,,15,2019-12-25,05:27:00.199,-37.8629787194,144.7423786510,18.3334,8.07,152.276,,-0.09,,,,1.4,0.7,1.07,2.29,,,,100,1.114,1.507
,278838.200,1,1,,25,15,,,-37.8629757382,144.7423786368,19.3420,7.98,152.259,,0.12,-2.2,3.4,153.4,,,0.16,0.28,,,,0,0.332,1.062
2085,278838.300,1,0,,,15,2019-12-25,05:27:00.299,-37.8629850883,144.7423829372,18.3305,8.08,151.852,,-0.01,,,,1.4,0.7,1.08,2.29,,,,100,1.106,1.499
,278838.300,1,1,,,15,,,-37.8629822121,144.7423829236,19.3386,8.02,152.233,,0.15,-2.1,3.5,153.5,,,0.16,0.28,,,,0,0.320,1.058
2085,278838.400,1,0,,,15,2019-12-25,05:27:00.399,-37.8629914601,144.7423872238,18.3342,8.08,151.782,,0.03,,,,1.4,0.7,1.08,2.29,,,,100,1.095,1.486
,278838.400,1,1,,,15,,,-37.8629887167,144.7423872392,19.3363,8.07,152.343,,0.12,-2.1,3.6,153.6,,,0.16,0.28,,,,0,0.305,1.048
2085,278838.500,1,0,,,15,2019-12-25,05:27:00.499,-37.8629979104,144.7423914831,18.3264,8.15,152.309,,-0.07,,,,1.4,0.7,1.08,2.29,,,,100,1.088,1.484
,278838.500,1,1,,,15,,,-37.8629953047,144.7423915509,19.3309,8.13,152.363,,0.11,-2.1,3.7,153.7,,,0.16,0.28,,,,0,0.290,1.045
2085,278838.600,1,0,,,15,2019-12-25,05:27:00.599,-37.8630044494,144.7423958056,18.3148,8.24,152.294,,-0.07,,,,1.4,0.7,1.08,2.29,,,,100,1.083,1.485
,278838.600,1,1,,,15,,,-37.8630019639,144.7423959108,19.3248,8.17,152.262,,0.11,-2.0,3.6,153.7,,,0.16,0.28,,,,0,0.277,1.047
2085,278838.700,1,0,,,15,2019-12-25,05:27:00.699,-37.8630110612,144.7424001902,18.3118,8.33,152.192,,0.03,,,,1.4,0.7,1.08,2.29,,,,100,1.079,1.480
,278838.700,1,1,,31,15,,,-37.8630086106,144.7424002904,19.3190,8.25,152.052,,0.09,-2.0,3.5,153.7,,,0.16,0.28,,,,0,0.273,1.043
2085,278838.800,1,0,,,15,2019-12-25,05:27:00.799,-37.8630176373,144.7424046881,18.3044,8.33,151.473,,-0.01,,,,1.4,0.7,1.08,2.29,,,,100,1.075,1.478
,278838.800,1,1,,,15,,,-37.8630152500,144.7424047628,19.3115,8.28,151.687,,0.08,-2.1,3.4,153.6,,,0.16,0.28,,,,0,0.266,1.041
2085,278838.900,1,0,,,15,2019-12-25,05:27:00.899,-37.8630242398,144.7424092583,18.2921,8.40,151.131,,-0.08,,,,,,1.08,2.29,,,,100,1.075,1.481
,278838.900,1,1,,,15,,,-37.8630219146,144.7424093158,19.3022,8.37,151.557,,0.07,-2.2,3.4,153.4,1.4,0.7,0.16,0.28,,,,0,0.259,1.043
2085,278839.000,1,0,,,15,2019-12-25,05:27:00.999,-37.8630308496,144.7424138239,18.2951,8.42,151.252,,0.06,,,,,,1.08,2.29,,,,100,1.069,1.469
,278839.000,1,1,,,15,,,-37.8630286152,144.7424138954,19.2945,8.43,151.379,,0.07,-2.3,3.4,153.3,1.4,0.7,0.16,0.28,,,,0,0.249,1.030
2085,278839.100,1,0,,,15,2019-12-25,05:27:01.099,-37.8630376019,144.7424185315,18.2640,8.62,150.963,,-0.29,,,,1.4,0.7,1.08,2.29,,,,100,1.079,1.492
,278839.100,1,1,,,15,,,-37.8630354061,144.7424185747,19.2821,8.49,151.228,,0.09,-2.4,3.3,153.1,,,0.16,0.28,,,,0,0.244,1.047
2085,278839.200,1,0,,,15,2019-12-25,05:27:01.199,-37.8630443310,144.7424231972,18.2585,8.58,151.149,,-0.02,,,,1.4,0.7,1.08,2.29,,,,100,1.072,1.482
,278839.200,1,1,,25,15,,,-37.8630422070,144.7424232566,19.2742,8.56,151.156,,0.08,-2.4,3.4,153.0,,,0.16,0.28,,,,0,0.236,1.043
2085,278839.300,1,0,,,15,2019-12-25,05:27:01.299,-37.8630511512,144.7424278802,18.2374,8.60,151.108,,-0.10,,,,1.5,0.7,1.08,2.29,,,,100,1.074,1.493
,278839.300,1,1,,,15,,,-37.8630490363,144.7424279741,19.2645,8.61,151.008,,0.07,-2.4,3.4,152.8,,,0.16,0.28,,,,0,0.235,1.054
2085,278839.400,1,0,,,15,2019-12-25,05:27:01.399,-37.8630580541,144.7424327132,18.2061,8.74,150.677,,-0.17,,,,1.5,0.7,1.08,2.29,,,,100,1.086,1.516
,278839.400,1,1,,,15,,,-37.8630559260,144.7424327885,19.2530,8.69,150.931,,0.07,-2.4,3.4,152.7,,,0.17,0.28,,,,0,0.237,1.073
2085,278839.500,1,0,,,15,2019-12-25,05:27:01.499,-37.8630649523,144.7424375524,18.2023,8.74,150.700,,0.09,,,,1.5,0.7,1.08,2.29,,,,100,1.087,1.512
,278839.500,1,1,,,15,,,-37.8630628411,144.7424376289,19.2460,8.75,150.816,,0.09,-2.5,3.4,152.6,,,0.17,0.28,,,,0,0.235,1.070
2085,278839.600,1,0,,,15,2019-12-25,05:27:01.599,-37.8630719046,144.7424425144,18.1713,8.83,150.353,,-0.15,,,,1.6,0.7,1.08,2.29,,,,100,1.095,1.535
,278839.600,1,1,,,15,,,-37.8630697976,144.7424425703,19.2347,8.83,150.664,,0.06,-2.5,3.4,152.5,,,0.16,0.28,,,,0,0.234,1.089
2085,278839.700,1,0,,,15,2019-12-25,05:27:01.699,-37.8630789140,144.7424474304,18.1543,8.88,150.788,,-0.01,,,,1.6,0.7,1.08,2.29,,,,100,1.100,1.542
,278839.700,1,1,,30,15,,,-37.8630768260,144.7424474948,19.2242,8.90,150.601,,0.07,-2.5,3.5,152.3,,,0.16,0.28,,,,0,0.232,1.095
2085,278839.800,1,0,,,15,2019-12-25,05:27:01.799,-37.8630859802,144.7424523930,18.1507,8.95,150.752,,0.13,,,,1.6,0.7,1.08,2.29,,,,100,1.105,1.541
,278839.800,1,1,,,15,,,-37.8630839072,144.7424524654,19.2165,8.96,150.503,,0.07,-2.6,3.4,152.2,,,0.16,0.28,,,,0,0.231,1.091
2085,278839.900,1,0,,,15,2019-12-25,05:27:01.899,-37.8630930463,144.7424575807,18.1182,9.06,149.707,,-0.20,,,,1.6,0.7,1.08,2.29,,,,100,1.111,1.562
,278839.900,1,1,,,15,,,-37.8630910009,144.7424576194,19.2032,9.04,150.393,,0.06,-2.7,3.4,152.1,,,0.16,0.28,,,,0,0.227,1.109
2085,278840.000,1,0,,,15,2019-12-25,05:27:01.999,-37.8631000459,144.7424628152,18.1019,9.02,149.198,,-0.06,,,,,,1.08,2.29,,,,100,1.104,1.560
,278840.000,1,1,,,15,,,-37.8630980519,144.7424628384,19.1929,9.10,150.222,,0.09,-2.8,3.5,152.0,1.6,0.7,0.16,0.28,,,,0,0.222,1.113
2085,278840.100,1,0,,,15,2019-12-25,05:27:02.099,-37.8631071813,144.7424680547,18.0798,9.16,149.719,,-0.14,,,,1.6,0.7,1.08,2.29,,,,100,1.114,1.575
,278840.100,1,1,,,15,,,-37.8631052256,144.7424680622,19.1813,9.17,150.223,,0.07,-2.9,3.5,151.9,,,0.16,0.28,,,,0,0.217,1.123
2085,278840.200,1,0,,,15,2019-12-25,05:27:02.199,-37.8631143693,144.7424732602,18.0758,9.19,150.029,,0.03,,,,1.6,0.7,1.08,2.29,,,,100,1.114,1.570
,278840.200,1,1,,24,15,,,-37.8631124497,144.7424732754,19.1713,9.23,150.154,,0.07,-3.0,3.5,151.8,,,0.16,0.28,,,,0,0.213,1.116
2085,278840.300,1,0,,,15,2019-12-25,05:27:02.299,-37.8631216058,144.7424785630,18.0713,9.29,149.782,,-0.00,,,,1.7,0.7,1.07,2.29,,,,100,1.119,1.569
,278840.300,1,1,,,15,,,-37.8631197293,144.7424785710,19.1611,9.30,150.163,,0.06,-3.1,3.5,151.8,,,0.16,0.28,,,,0,0.209,1.110
2085,278840.400,1,0,,,15,2019-12-25,05:27:02.399,-37.8631288876,144.7424839457,18.0493,9.34,149.585,,-0.10,,,,1.6,0.7,1.07,2.29,,,,100,1.122,1.580
,278840.400,1,1,,,15,,,-37.8631270405,144.7424839187,19.1476,9.37,150.290,,0.04,-3.2,3.4,151.8,,,0.16,0.28,,,,0,0.205,1.117
2085,278840.500,1,0,,,15,2019-12-25,05:27:02.499,-37.8631362401,144.7424893800,18.0221,9.43,149.639,,-0.15,,,,1.6,0.7,1.07,2.29,,,,100,1.130,1.595
,278840.500,1,1,,,15,,,-37.8631344232,144.7424893042,19.1334,9.44,150.338,,0.07,-3.3,3.4,151.8,,,0.16,0.28,,,,0,0.202,1.130
2085,278840.600,1,0,,,15,2019-12-25,05:27:02.599,-37.8631435989,144.7424947098,18.0174,9.38,150.045,,0.06,,,,1.6,0.7,1.07,2.29,,,,100,1.125,1.585
,278840.600,1,1,,,15,,,-37.8631418196,144.7424946335,19.1253,9.50,150.434,,0.09,-3.3,3.4,151.9,,,0.16,0.28,,,,0,0.198,1.126
2085,278840.700,1,0,,,15,2019-12-25,05:27:02.699,-37.8631510167,144.7425000607,18.0059,9.46,150.184,,0.01,,,,1.6,0.7,1.07,2.29,,,,100,1.128,1.589
,278840.700,1,1,,30,15,,,-37.8631492744,144.7424999813,19.1160,9.56,150.447,,0.07,-3.3,3.5,151.9,,,0.16,0.28,,,,0,0.194,1.127
2085,278840.800,1,0,,,15,2019-12-25,05:27:02.799,-37.8631585090,144.7425054387,17.9902,9.55,150.204,,-0.08,,,,1.7,0.7,1.07,2.29,,,,100,1.133,1.597
,278840.800,1,1,,,15,,,-37.8631567974,144.7425053732,19.1042,9.62,150.554,,0.06,-3.3,3.5,152.0,,,0.16,0.28,,,,0,0.190,1.130
2085,278840.900,1,0,,,15,2019-12-25,05:27:02.899,-37.8631661282,144.7425108847,17.9587,9.71,150.284,,-0.21,,,,1.7,0.7,1.07,2.29,,,,100,1.145,1.620
,278840.900,1,1,,,15,,,-37.8631644233,144.7425108201,19.0893,9.69,150.671,,0.07,-3.5,3.4,152.0,,,0.16,0.28,,,,0,0.190,1.146
2085,278841.000,1,0,,,15,2019-12-25,05:27:02.999,-37.8631736723,144.7425163440,17.9527,9.64,150.007,,0.03,,,,1.7,0.7,1.07,2.29,,,,100,1.137,1.608
,278841.000,1,1,,,15,,,-37.8631720212,144.7425162789,19.0799,9.77,150.845,,0.08,-3.6,3.5,152.1,,,0.16,0.28,,,,0,0.184,1.142
2085,278841.100,1,0,,,15,2019-12-25,05:27:03.099,-37.8631812337,144.7425217812,17.9391,9.65,150.123,,-0.05,,,,1.7,0.7,1.07,2.29,,,,100,1.133,1.607
,278841.100,1,1,,,15,,,-37.8631796479,144.7425217275,19.0696,9.82,151.123,,0.07,-3.6,3.6,152.3,,,0.16,0.28,,,,0,0.176,1.144
2085,278841.200,1,0,,,15,2019-12-25,05:27:03.199,-37.8631888473,144.7425272159,17.9230,9.71,150.337,,-0.10,,,,1.7,0.7,1.07,2.29,,,,100,1.131,1.610
,278841.200,1,1,,24,15,,,-37.8631873361,144.7425271704,19.0582,9.86,151.281,,0.08,-3.7,3.6,152.5,,,0.16,0.28,,,,0,0.168,1.148
2085,278841.300,1,0,,,15,2019-12-25,05:27:03.299,-37.8631966267,144.7425326222,17.9197,9.86,151.033,,0.03,,,,1.7,0.7,1.07,2.29,,,,100,1.139,1.610
,278841.300,1,1,,,15,,,-37.8631951568,144.7425325821,19.0495,9.90,151.516,,0.08,-3.6,3.5,152.7,,,0.16,0.28,,,,0,0.163,1.142
2085,278841.400,1,0,,,15,2019-12-25,05:27:03.399,-37.8632043655,144.7425380670,17.9086,9.84,150.682,,-0.03,,,,1.7,0.7,1.07,2.29,,,,100,1.132,1.607
,278841.400,1,1,,,15,,,-37.8632029581,144.7425380270,19.0388,9.92,151.665,,0.07,-3.7,3.5,152.9,,,0.16,0.28,,,,0,0.157,1.141
2085,278841.500,1,0,,,15,2019-12-25,05:27:03.499,-37.8632120896,144.7425434034,17.8959,9.80,151.070,,-0.14,,,,1.6,0.7,1.07,2.29,,,,100,1.120,1.600
,278841.500,1,1,,,15,,,-37.8632107665,144.7425434036,19.0267,9.94,151.825,,0.06,-3.8,3.5,153.0,,,0.16,0.28,,,,0,0.147,1.140
2085,278841.600,1,0,,,15,2019-12-25,05:27:03.599,-37.8632198859,144.7425487911,17.8789,9.85,151.268,,-0.05,,,,1.7,0.7,1.07,2.29,,,,100,1.119,1.603
,278841.600,1,1,,,15,,,-37.8632186172,144.7425487706,19.0142,9.94,151.981,,0.06,-3.9,3.5,153.2,,,0.16,0.28,,,,0,0.141,1.144
2085,278841.700,1,0,,,15,2019-12-25,05:27:03.699,-37.8632276568,144.7425541702,17.8654,9.83,151.260,,-0.01,,,,1.7,0.7,1.07,2.29,,,,100,1.111,1.598
,278841.700,1,1,,30,15,,,-37.8632264576,144.7425541195,19.0036,9.95,152.160,,0.08,-4.0,3.5,153.4,,,0.16,0.28,,,,0,0.133,1.146
2085,278841.800,1,0,,,15,2019-12-25,05:27:03.799,-37.8632354531,144.7425594983,17.8498,9.83,151.615,,-0.03,,,,1.7,0.7,1.07,2.29,,,,100,1.106,1.598
,278841.800,1,1,,,15,,,-37.8632343200,144.7425594170,18.9931,9.94,152.337,,0.07,-4.0,3.5,153.5,,,0.16,0.27,,,,0,0.126,1.150
2085,278841.900,1,0,,,15,2019-12-25,05:27:03.899,-37.8632432617,144.7425648088,17.8307,9.82,151.781,,-0.08,,,,1.7,0.7,1.07,2.29,,,,100,1.101,1.601
,278841.900,1,1,,,15,,,-37.8632421882,144.7425646855,18.9814,,,,,,,,,,0.16,0.27,,,,0,0.120,1.157
,278851.100,,,,,,,,,,,0.34,157.335,,-0.33,-2.9,3.7,148.7,,,,,,,,9200,,
2085,278851.200,1,0,,,15,2019-12-25,05:27:13.199,-37.8636407591,144.7428306496,17.7082,0.03,101.310,,-0.03,,,,1.4,0.7,1.08,2.29,,,,100,,
,278851.200,1,1,,25,15,,,-37.8636430493,144.7428300724,17.2851,0.34,156.272,,-0.33,-2.9,3.7,148.7,,,0.17,0.27,,,,0,0.260,0.496
2085,278851.300,1,0,,,15,2019-12-25,05:27:13.299,-37.8636407288,144.7428306370,17.7152,0.03,281.310,,0.03,,,,1.4,0.7,1.08,2.29,,,,100,0.263,0.504
,278851.300,1,1,,,15,,,-37.8636430356,144.7428301141,17.2633,0.34,154.680,,-0.33,-2.9,3.7,148.8,,,0.17,0.27,,,,0,0.261,0.522
2085,278851.400,1,0,,,15,2019-12-25,05:27:13.399,-37.8636406946,144.7428306330,17.7162,0.01,338.199,,-0.01,,,,1.4,0.7,1.08,2.29,,,,100,0.264,0.524
,278851.400,1,1,,,15,,,-37.8636430173,144.7428301580,17.2412,0.34,154.680,,-0.33,-2.9,3.7,148.8,,,0.17,0.27,,,,0,0.262,0.542
2085,278851.500,1,0,,,15,2019-12-25,05:27:13.499,-37.8636406574,144.7428306238,17.7165,0.01,0.000,,-0.01,,,,1.4,0.7,1.08,2.29,,,,100,0.266,0.545
,278851.500,1,1,,,15,,,-37.8636429976,144.7428302009,17.2198,0.34,153.435,,-0.33,-2.9,3.7,148.8,,,0.17,0.27,,,,0,0.263,0.562
2085,278851.600,1,0,,,15,2019-12-25,05:27:13.599,-37.8636406196,144.7428306112,17.7168,0.01,270.000,,-0.01,,,,1.4,0.7,1.08,2.29,,,,100,0.267,0.564
,278851.600,1,1,,,15,,,-37.8636429792,144.7428302413,17.1989,0.34,152.939,,-0.33,-2.9,3.7,148.8,,,0.17,0.27,,,,0,0.264,0.582
2085,278851.700,1,0,,,15,2019-12-25,05:27:13.699,-37.8636405847,144.7428305824,17.7176,0.01,225.000,,0.00,,,,1.4,0.7,1.08,2.29,,,,100,0.268,0.584
,278851.700,1,1,,31,15,,,-37.8636429646,144.7428302779,17.1784,0.34,152.939,,-0.33,-2.9,3.7,148.8,,,0.17,0.27,,,,0,0.266,0.601
2085,278851.800,1,0,,,15,2019-12-25,05:27:13.799,-37.8636405333,144.7428305673,17.7197,0.01,45.000,,0.01,,,,1.4,0.7,1.08,2.29,,,,100,0.272,0.606
,278851.800,1,1,,,15,,,-37.8636429432,144.7428303207,17.1583,0.34,151.699,,-0.33,-2.9,3.7,148.8,,,0.17,0.27,,,,0,0.269,0.622
2085,278851.900,1,0,,,15,2019-12-25,05:27:13.899,-37.8636404923,144.7428305385,17.7200,0.01,288.435,,0.01,,,,1.4,0.7,1.08,2.29,,,,100,0.273,0.625
